{
  "NormalRequest": [
    {
      "Name": "Ahmed M",
      "PhoneNumber": "01255887563",
      "Hospital": "Al Waha Hospital",
      "BTR": "A+",
      "RequestTime": "20-12-2016",
      "latitude": 29.998611,
      "longitude": 31.337194
    },
    {
      "Name": "Mostafa H",
      "PhoneNumber": "01156587354",
      "Hospital": "Egyptian IVF Center",
      "BTR": "O-",
      "RequestTime": "4-1-2017",
      "latitude": 29.967551,
      "longitude": 31.248827
    },
    {
      "Name": "Sarah T",
      "PhoneNumber": "01150012974",
      "Hospital": "As-Salam International Hospital",
      "BTR": "A-",
      "RequestTime": "21-12-2016",
      "latitude": 29.985070,
      "longitude": 31.230042
    },
    {
      "Name": "Amr L",
      "PhoneNumber": "01123498521",
      "Hospital": "Dar El Fouad",
      "BTR": "B+",
      "RequestTime": "29-12-2016",
      "latitude": 29.998558,
      "longitude": 30.967527
    },
    {
      "Name": "Samer G",
      "PhoneNumber": "01274222512",
      "Hospital": "City Clinic",
      "BTR": "AB-",
      "RequestTime": "25-12-2016",
      "latitude": 30.059201,
      "longitude": 30.942048
    },
    {
      "Name": "Reem M",
      "PhoneNumber": "01281521851",
      "Hospital": "Children’s Cancer Hospital Foundation",
      "BTR": "B-",
      "RequestTime": "2-1-2017",
      "latitude": 30.22980,
      "longitude": 31.237848
    }
  ],

  "UrgentRequest": [
    {
      "Name": "Merna",
      "PhoneNumber": "012848832163",
      "Hospital": "Al Waha Hospital",
      "BTR": "AB-",
      "RequestTime": "As soon as possible !",
      "latitude":  29.998611,
      "longitude": 31.337194
    },
    {
      "Name": "Adel M",
      "PhoneNumber": "01152386314",
      "Hospital": "Egyptian IVF Center",
      "BTR": "O-",
      "RequestTime": "with 3 hours",
      "latitude": 29.967551,
      "longitude": 31.248827
    },
    {
      "Name": "Maro L",
      "PhoneNumber": "01150012974",
      "Hospital": "As-Salam International Hospital",
      "BTR": "A-",
      "RequestTime": "As soon as possible !",
      "latitude": 29.985070,
      "longitude": 31.230042
    },
    {
      "Name": "Hend G",
      "PhoneNumber": "01123498521",
      "Hospital": "Dar El Fouad",
      "BTR": "A+",
      "RequestTime": "with 3 hours",
      "latitude": 29.998558,
      "longitude": 30.967527
    },
    {
      "Name": "Menna K",
      "PhoneNumber": "01274222512",
      "Hospital": "City Clinic",
      "BTR": "AB+",
      "RequestTime": "Now !",
      "latitude": 30.059201,
      "longitude": 30.942048
    },
    {
      "Name": "Reem M",
      "PhoneNumber": "01281521851",
      "Hospital": "Children’s Cancer Hospital Foundation",
      "BTR": "O+",
      "RequestTime": "within an hour",
      "latitude":  30.22980,
      "longitude": 31.237848
    }
  ]
   
}
